[{"type": "location", "subType": "AIRPORT", "name": "STANSTED", "detailedName": "LONDON/GB:STANSTED", "timeZoneOffset": "+00:00", "iataCode": "STN", "geoCode": {"latitude": 51.885, "longitude": 0.23501}, "address": {"cityName": "LONDON", "cityCode": "LON", "countryName": "UNITED KINGDOM", "countryCode": "GB", "regionCode": "EUROP"}, "distance": {"value": 36, "unit": "KM"}, "analytics": {"flights": {"score": 16}, "travelers": {"score": 15}}, "relevance": 43.76411}, {"type": "location", "subType": "AIRPORT", "name": "HEATHROW", "detailedName": "LONDON/GB:HEATHROW", "timeZoneOffset": "+00:00", "iataCode": "LHR", "geoCode": {"latitude": 51.4775, "longitude": -0.46138}, "address": {"cityName": "LONDON", "cityCode": "LON", "countryName": "UNITED KINGDOM", "countryCode": "GB", "regionCode": "EUROP"}, "distance": {"value": 90, "unit": "KM"}, "analytics": {"flights": {"score": 39}, "travelers": {"score": 45}}, "relevance": 43.30085}, {"type": "location", "subType": "AIRPORT", "name": "LUTON", "detailedName": "LONDON/GB:LUTON", "timeZoneOffset": "+00:00", "iataCode": "LTN", "geoCode": {"latitude": 51.87473, "longitude": -0.36833}, "address": {"cityName": "LONDON", "cityCode": "LON", "countryName": "UNITED KINGDOM", "countryCode": "GB", "regionCode": "EUROP"}, "distance": {"value": 49, "unit": "KM"}, "analytics": {"flights": {"score": 11}, "travelers": {"score": 10}}, "relevance": 22.68982}, {"type": "location", "subType": "AIRPORT", "name": "GATWICK", "detailedName": "LONDON/GB:GATWICK", "timeZoneOffset": "+00:00", "iataCode": "LGW", "geoCode": {"latitude": 51.15612, "longitude": -0.17805}, "address": {"cityName": "LONDON", "cityCode": "LON", "countryName": "UNITED KINGDOM", "countryCode": "GB", "regionCode": "EUROP"}, "distance": {"value": 118, "unit": "KM"}, "analytics": {"flights": {"score": 27}, "travelers": {"score": 27}}, "relevance": 22.5642}, {"type": "location", "subType": "AIRPORT", "name": "CAMBRIDGE", "detailedName": "CAMBRIDGE/GB", "timeZoneOffset": "+00:00", "iataCode": "CBG", "geoCode": {"latitude": 52.20501, "longitude": 0.175}, "address": {"cityName": "CAMBRIDGE", "cityCode": "CBG", "countryName": "UNITED KINGDOM", "countryCode": "GB", "regionCode": "EUROP"}, "distance": {"value": 3, "unit": "KM"}, "analytics": {"flights": {"score": 0}, "travelers": {"score": 0}}, "relevance": 10.67248}, {"type": "location", "subType": "AIRPORT", "name": "CHARLES DE GAULLE", "detailedName": "PARIS/FR:CHARLES DE GAULLE", "timeZoneOffset": "+01:00", "iataCode": "CDG", "geoCode": {"latitude": 49.01278, "longitude": 2.55}, "address": {"cityName": "PARIS", "cityCode": "PAR", "countryName": "FRANCE", "countryCode": "FR", "regionCode": "EUROP"}, "distance": {"value": 394, "unit": "KM"}, "analytics": {"flights": {"score": 41}, "travelers": {"score": 42}}, "relevance": 10.48956}, {"type": "location", "subType": "AIRPORT", "name": "CITY AIRPORT", "detailedName": "LONDON/GB:CITY AIRPORT", "timeZoneOffset": "+00:00", "iataCode": "LCY", "geoCode": {"latitude": 51.50528, "longitude": 0.05528}, "address": {"cityName": "LONDON", "cityCode": "LON", "countryName": "UNITED KINGDOM", "countryCode": "GB", "regionCode": "EUROP"}, "distance": {"value": 78, "unit": "KM"}, "analytics": {"flights": {"score": 8}, "travelers": {"score": 4}}, "relevance": 9.83416}, {"type": "location", "subType": "AIRPORT", "name": "MANCHESTER AIRPORT", "detailedName": "MANCHESTER/GB:MANCHESTER AIRPO", "timeZoneOffset": "+00:00", "iataCode": "MAN", "geoCode": {"latitude": 53.35362, "longitude": -2.275}, "address": {"cityName": "MANCHESTER", "cityCode": "MAN", "countryName": "UNITED KINGDOM", "countryCode": "GB", "regionCode": "EUROP"}, "distance": {"value": 205, "unit": "KM"}, "analytics": {"flights": {"score": 18}, "travelers": {"score": 17}}, "relevance": 8.77513}, {"type": "location", "subType": "AIRPORT", "name": "BIRMINGHAM", "detailedName": "BIRMINGHAM/GB:BIRMINGHAM", "timeZoneOffset": "+00:00", "iataCode": "BHX", "geoCode": {"latitude": 52.45389, "longitude": -1.74805}, "address": {"cityName": "BIRMINGHAM", "cityCode": "BHX", "countryName": "UNITED KINGDOM", "countryCode": "GB", "regionCode": "EUROP"}, "distance": {"value": 129, "unit": "KM"}, "analytics": {"flights": {"score": 10}, "travelers": {"score": 8}}, "relevance": 7.90702}, {"type": "location", "subType": "AIRPORT", "name": "ORLY", "detailedName": "PARIS/FR:ORLY", "timeZoneOffset": "+01:00", "iataCode": "ORY", "geoCode": {"latitude": 48.72528, "longitude": 2.35945}, "address": {"cityName": "PARIS", "cityCode": "PAR", "countryName": "FRANCE", "countryCode": "FR", "regionCode": "EUROP"}, "distance": {"value": 418, "unit": "KM"}, "analytics": {"flights": {"score": 26}, "travelers": {"score": 23}}, "relevance": 6.23958}]