[{"type": "location", "subType": "AIRPORT", "name": "BIRMINGHAM", "detailedName": "BIRMINGHAM/GB:BIRMINGHAM", "timeZoneOffset": "+00:00", "iataCode": "BHX", "geoCode": {"latitude": 52.45389, "longitude": -1.74805}, "address": {"cityName": "BIRMINGHAM", "cityCode": "BHX", "countryName": "UNITED KINGDOM", "countryCode": "GB", "regionCode": "EUROP"}, "distance": {"value": 10, "unit": "KM"}, "analytics": {"flights": {"score": 10}, "travelers": {"score": 8}}, "relevance": 96.91679}, {"type": "location", "subType": "AIRPORT", "name": "HEATHROW", "detailedName": "LONDON/GB:HEATHROW", "timeZoneOffset": "+00:00", "iataCode": "LHR", "geoCode": {"latitude": 51.4775, "longitude": -0.46138}, "address": {"cityName": "LONDON", "cityCode": "LON", "countryName": "UNITED KINGDOM", "countryCode": "GB", "regionCode": "EUROP"}, "distance": {"value": 148, "unit": "KM"}, "analytics": {"flights": {"score": 39}, "travelers": {"score": 45}}, "relevance": 26.26424}, {"type": "location", "subType": "AIRPORT", "name": "MANCHESTER AIRPORT", "detailedName": "MANCHESTER/GB:MANCHESTER AIRPO", "timeZoneOffset": "+00:00", "iataCode": "MAN", "geoCode": {"latitude": 53.35362, "longitude": -2.275}, "address": {"cityName": "MANCHESTER", "cityCode": "MAN", "countryName": "UNITED KINGDOM", "countryCode": "GB", "regionCode": "EUROP"}, "distance": {"value": 100, "unit": "KM"}, "analytics": {"flights": {"score": 18}, "travelers": {"score": 17}}, "relevance": 17.93947}, {"type": "location", "subType": "AIRPORT", "name": "GATWICK", "detailedName": "LONDON/GB:GATWICK", "timeZoneOffset": "+00:00", "iataCode": "LGW", "geoCode": {"latitude": 51.15612, "longitude": -0.17805}, "address": {"cityName": "LONDON", "cityCode": "LON", "countryName": "UNITED KINGDOM", "countryCode": "GB", "regionCode": "EUROP"}, "distance": {"value": 188, "unit": "KM"}, "analytics": {"flights": {"score": 27}, "travelers": {"score": 27}}, "relevance": 14.15723}, {"type": "location", "subType": "AIRPORT", "name": "STANSTED", "detailedName": "LONDON/GB:STANSTED", "timeZoneOffset": "+00:00", "iataCode": "STN", "geoCode": {"latitude": 51.885, "longitude": 0.23501}, "address": {"cityName": "LONDON", "cityCode": "LON", "countryName": "UNITED KINGDOM", "countryCode": "GB", "regionCode": "EUROP"}, "distance": {"value": 159, "unit": "KM"}, "analytics": {"flights": {"score": 16}, "travelers": {"score": 15}}, "relevance": 10.00409}, {"type": "location", "subType": "AIRPORT", "name": "LUTON", "detailedName": "LONDON/GB:LUTON", "timeZoneOffset": "+00:00", "iataCode": "LTN", "geoCode": {"latitude": 51.87473, "longitude": -0.36833}, "address": {"cityName": "LONDON", "cityCode": "LON", "countryName": "UNITED KINGDOM", "countryCode": "GB", "regionCode": "EUROP"}, "distance": {"value": 124, "unit": "KM"}, "analytics": {"flights": {"score": 11}, "travelers": {"score": 10}}, "relevance": 9.05541}, {"type": "location", "subType": "AIRPORT", "name": "CHARLES DE GAULLE", "detailedName": "PARIS/FR:CHARLES DE GAULLE", "timeZoneOffset": "+01:00", "iataCode": "CDG", "geoCode": {"latitude": 49.01278, "longitude": 2.55}, "address": {"cityName": "PARIS", "cityCode": "PAR", "countryName": "FRANCE", "countryCode": "FR", "regionCode": "EUROP"}, "distance": {"value": 496, "unit": "KM"}, "analytics": {"flights": {"score": 41}, "travelers": {"score": 42}}, "relevance": 8.3326}, {"type": "location", "subType": "AIRPORT", "name": "EAST MIDLANDS", "detailedName": "NOTTINGHAM/GB:EAST MIDLANDS", "timeZoneOffset": "+00:00", "iataCode": "EMA", "geoCode": {"latitude": 52.83112, "longitude": -1.32805}, "address": {"cityName": "NOTTINGHAM", "cityCode": "NQT", "countryName": "UNITED KINGDOM", "countryCode": "GB", "regionCode": "EUROP"}, "distance": {"value": 54, "unit": "KM"}, "analytics": {"flights": {"score": 4}, "travelers": {"score": 3}}, "relevance": 7.38744}, {"type": "location", "subType": "AIRPORT", "name": "BRISTOL", "detailedName": "BRISTOL/GB:BRISTOL", "timeZoneOffset": "+00:00", "iataCode": "BRS", "geoCode": {"latitude": 51.38278, "longitude": -2.71916}, "address": {"cityName": "BRISTOL", "cityCode": "BRS", "countryName": "UNITED KINGDOM", "countryCode": "GB", "regionCode": "EUROP"}, "distance": {"value": 134, "unit": "KM"}, "analytics": {"flights": {"score": 7}, "travelers": {"score": 5}}, "relevance": 4.84283}, {"type": "location", "subType": "AIRPORT", "name": "CITY AIRPORT", "detailedName": "LONDON/GB:CITY AIRPORT", "timeZoneOffset": "+00:00", "iataCode": "LCY", "geoCode": {"latitude": 51.50528, "longitude": 0.05528}, "address": {"cityName": "LONDON", "cityCode": "LON", "countryName": "UNITED KINGDOM", "countryCode": "GB", "regionCode": "EUROP"}, "distance": {"value": 172, "unit": "KM"}, "analytics": {"flights": {"score": 8}, "travelers": {"score": 4}}, "relevance": 4.4543}]